,snumber,regine,main,name,stnr,start.yr,end.yr,missing.yr,areal,altitude,utm.e,runoff.region,lon,lat,BREPRO,station.order,seNorge,missingData30yr
13,200145,2,145,BaattstO,2.145,1896,2012,0,11212.84,1139.0,247417.27,ostlandet,10.2775323649,61.3333848,3.0,41,1,0.0
42,6200005,62,5,Bulken (Vangsvatnet),62.5,1892,2014,0,1092.04,867.0,24487.79,vestlandet,6.291809036419999,60.6292968801,0.39,27,1,0.0
34,200604,2,604,Elverum,2.604,1871,2013,0,15451.76,817.0,313303.9,ostlandet,11.560652424,60.8742120704,0.0,20,1,0.0
36,31100004,311,4,Femundsenden (Femunden),311.4,1896,2013,0,1794.03,782.0,339350.0,ostlandet,11.940042970799999,61.91996114729999,0.0,18,1,0.0
9,2200004,22,4,KjOlemo,22.4,1896,2013,0,1757.7,560.0,60352.1,sorlandet,7.527672218139999,58.1202369475,0.0,16,1,0.0
17,2000003,20,3,Flaksvatn,20.3,1899,2013,0,1780.66,354.0,102366.62,sorlandet,8.20306070728,58.330464422700004,0.0,8,1,0.0
